id,c_fore_rgn_id,c_wthr_s_t_id,station_id,station_name,latitude,longitude,elevation_meters,anemometer_height_meters,base_station_indicator,handar_automatic_id,active_flag,report_fwi_flag,create_timestamp,create_userid,update_timestamp,update_userid,c_wthr_s_t_type,c_fore_rgn_type
242,10,1,AC,ADAMS CREEK,53.725402,-118.568252,2177.63,,N,,Y,N,1/4/1998 10:24,DBA,15/12/2005 13:34:46,TGROSSE,LO,ED
76,1,1,AD,ADAIR,59.160627,-118.329472,394,,N,,Y,Y,1/4/1998 10:24,DBA,18/11/2004 16:00:43,SSIMSER,LO,OJ
914,9,6,AE,Abee Agrd,54.2773,-112.9654,664,,N,,N,H,20/04/2012 09:29:39,PKRUGER,19/01/2018 11:29:07,PKRUGER,MET,LB
185,11,1,AF,Alder Flats,52.93,-114.9403,960,,N,,N,H,1/4/1998 10:24,DBA,2/3/2004 15:04,LAVIS,LO,RM
2011,13,5,AKM,Akamina Pass,49.0272,-114.0535,1809,,N,,N,H,20/12/2017 14:08:32,PKRUGER,20/04/2018 09:59:26,JWOLLIS,PAW,CR
4,8,1,AL,Algar,56.1608,-111.7198,751.3,,N,,N,H,1/4/1998 10:24,DBA,8/11/2018 11:31,PKRUGER,LO,MM
2232,8,5,ALA,Algar Auto,56.1608,-111.7198,750,,N,,Y,Y,23/07/2018 10:58:11,PKRUGER,,,PAW,MM
74,1,1,AM,AMBER,59.176464,-119.455868,611,,N,,Y,Y,1/4/1998 10:24,DBA,16/08/2005 14:07:59,KKEATS,LO,OJ
52,10,1,AN,ANSELL,53.551275,-116.503011,967.7,,N,,Y,Y,1/4/1998 10:24,DBA,18/11/2004 16:42:34,SSIMSER,LO,ED
911,9,6,AO,Atmore ,54.7802,-112.8248,574,,N,,Y,Y,20/04/2012 09:25:09,PKRUGER,23/05/2018 13:30:16,PKRUGER,MET,LB
2091,9,5,AOA,Atmore Agdm,54.7802,-112.8248,583,,N,,N,N,23/05/2018 13:30:16,PKRUGER,6/9/2018 11:42,PKRUGER,PAW,LB
689,7,4,AR,Archer Lake,58.1299,-110.2536,280,,N,,N,H,12/6/2008 12:52,PKRUGER,5/11/2014 8:38,PKRUGER,TAW,PY
1051,6,6,AS,Fort Assiniboine Agrd,54.4104,-114.7692,676,,N,,N,H,14/05/2013 13:13:32,PKRUGER,7/9/2018 11:11,PKRUGER,MET,SH
1592,6,5,ASA,Fort Assiniboine Auto,54.4104,-114.7692,676,,N,,N,Y,20/04/2016 10:55:29,PKRUGER,14/03/2018 13:35:28,LDUCHARM,PAW,SH
58,10,1,AT,ATHABASCA,53.408461,-117.786346,1581.78,,N,,Y,Y,1/4/1998 10:24,DBA,18/11/2004 16:20:54,SSIMSER,LO,ED
176,11,1,AU,AURORA,52.654945,-115.724642,1330.69,,N,,Y,Y,1/4/1998 10:24,DBA,18/11/2004 16:21:25,SSIMSER,LO,RM
38,12,5,B1,Highwood Auto,50.4147,-114.7264,1576,,N,,Y,Y,1/4/1998 10:24,DBA,23/04/2007 09:04:14,PKRUGER,PAW,BO
39,12,5,B2,Willow Creek Auto,50.239,-114.348,1446,,N,,Y,Y,1/4/1998 10:24,DBA,8/1/2004 13:20,FIRE_PROD,PAW,BO
40,11,5,B3,Yaha Tinda Auto,51.6547,-115.3617,1486,,N,,Y,Y,1/4/1998 10:24,DBA,26/05/2009 08:06:10,NNIMCHUK,PAW,RM
41,12,5,B4,Kananaskis Boundary Auto,50.9258,-115.124,1464,,N,,Y,Y,1/4/1998 10:24,DBA,1/4/2019 13:26,JWOLLIS,PAW,BO
42,12,5,B5,Peter Lougheed Pp Auto,50.7136,-115.1192,1622,,N,,Y,Y,1/4/1998 10:24,DBA,1/4/2019 13:26,JWOLLIS,PAW,BO
400,12,5,B6,Burnt Timber,51.58,-114.95,1420,,N,,N,H,1/4/1998 10:24,DBA,8/1/2004 13:21,FIRE_PROD,PAW,BO
401,12,5,B7,Elbow Auto,50.905,-114.6911,1413,,N,,Y,Y,1/4/1998 10:24,DBA,2/3/2004 15:04,LAVIS,PAW,BO
476,12,5,B8,North Ghost Auto,51.5742,-114.8553,1477,,N,,Y,Y,28/05/1999 16:05:10,LAVIS,1/4/2019 13:26,JWOLLIS,PAW,BO
682,11,4,BA,Blackstone Burn,52.5958,-116.6309,1669,,N,,N,N,2/5/2007 15:18,NNIMCHUK,14/02/2018 11:08:53,PKRUGER,TAW,RM
46,12,1,BB,Burnt Timber,51.449,-115.2721,2332,,N,,N,H,1/4/1998 10:24,DBA,8/1/2004 13:21,FIRE_PROD,LO,BO
73,1,1,BC,BASSET,58.195219,-118.218453,755,,N,,Y,Y,1/4/1998 10:24,DBA,18/11/2004 16:01:35,SSIMSER,LO,OJ
110,5,1,BD,BALD MOUNTAIN,54.812968,-118.91642,954.9,,N,,Y,Y,1/4/1998 10:24,DBA,18/11/2004 16:43:11,SSIMSER,LO,GP
224,6,1,BE,Berland,54.0904,-117.4013,1230.9,,N,,N,H,1/4/1998 10:24,DBA,19/05/2015 10:07:14,PKRUGER,LO,SH
1252,6,5,BEA,Berland AUTO,54.0904,-117.4013,1230,,N,,Y,Y,28/08/2014 14:57:40,PKRUGER,,,PAW,SH
83,2,1,BF,BUFFALO,57.954271,-116.204649,801,,N,,Y,Y,1/4/1998 10:24,DBA,9/12/2004 21:42,LDUCHARM,LO,FV
481,10,2,BG,Blue Ridge,54.125,-115.3764,731.52,,N,,N,H,9/12/1999 14:52,FIRE_PROD,8/1/2004 13:21,FIRE_PROD,RS,ED
25,11,1,BH,BLUE HILL,51.70506,-115.224681,1987,,N,,Y,Y,1/4/1998 10:24,DBA,17/12/2004 10:11:38,KKEATS,LO,RM
10,8,1,BI,Birch Mountain,57.6946,-111.8261,798,,N,,N,H,1/4/1998 10:24,DBA,8/11/2018 11:30,PKRUGER,LO,MM
2231,8,5,BIA,Birch Mountain Auto,57.6946,-111.8261,798,,N,,Y,Y,23/07/2018 10:56:56,PKRUGER,23/07/2018 10:59:40,PKRUGER,PAW,MM
494,,1,BJ,Birch Mountain (Nbp),58.1167,-112.8167,411.48,,N,,N,H,9/12/1999 16:06,FIRE_PROD,8/1/2004 13:21,FIRE_PROD,LO,
47,12,1,BK,BURNSTICK,51.964,-114.777,1227,,N,,N,H,1/4/1998 10:24,DBA,3/6/2004 12:09,LDUCHARM,LO,BO
173,11,1,BL,BASELINE,52.131453,-115.428769,1907.5,,N,,Y,Y,1/4/1998 10:24,DBA,9/12/2004 21:42,LDUCHARM,LO,RM
14,8,1,BM,Bitumont,57.3658,-111.5363,397,,N,,N,H,1/4/1998 10:24,DBA,5/11/2009 9:29,PKRUGER,LO,MM
9,8,1,BN,Buckton,57.8719,-112.102,835,,N,,N,N,1/4/1998 10:24,DBA,27/11/2018 10:21:06,PKRUGER,LO,MM
2171,8,5,BNA,Buckton Auto,57.9428,-112.3976,646,,N,,Y,Y,22/06/2018 14:00:31,PKRUGER,,,PAW,MM
48,12,2,BO,Kananaskis Boundary,50.9267,-115.1236,1453,,N,,N,H,1/4/1998 10:24,DBA,8/1/2004 13:21,FIRE_PROD,RS,BO
27,12,1,BP,BARRIER LAKE,51.048111,-115.079931,2020.5,,N,,Y,Y,1/4/1998 10:24,DBA,15/12/2005 13:35:32,TGROSSE,LO,BO
36,13,2,BQ,BLAIRMORE,49.6086,-114.4514,1311,,N,,N,H,1/4/1998 10:24,DBA,8/1/2004 13:21,FIRE_PROD,RS,CR
160,3,1,BR,Battle River,57.1677,-117.664,674,,N,,N,H,1/4/1998 10:24,DBA,24/10/2018 09:20:55,PKRUGER,LO,MA
2474,3,5,BRA,Battle River Auto,57.1677,-117.664,675,,N,,Y,Y,24/10/2018 09:20:49,PKRUGER,24/10/2018 09:21:37,PKRUGER,PAW,MA
1714,2,4,BRT,Beaver Ranch Taws,58.4929,-115.6058,300,,N,,N,H,31/08/2016 08:58:43,JMANIAOL,19/01/2018 11:09:04,PKRUGER,TAW,FV
2012,12,5,BRY,Bryant,50.8993,-115.522,1850,,N,,N,N,20/12/2017 14:10:51,PKRUGER,3/5/2018 11:47,PAZUR,PAW,BO
159,4,1,BS,Bison Lake,57.111,-116.5096,716,,N,,Y,Y,1/4/1998 10:24,DBA,19/04/2018 10:07:47,PKRUGER,LO,RE
174,11,1,BT,BLACKSTONE,52.774325,-116.331286,1575.6,,N,,Y,Y,1/4/1998 10:24,DBA,15/12/2005 13:35:43,TGROSSE,LO,RM
654,6,4,BU,Blue Ridge Lumber,54.4776,-116.1335,970,,N,,N,H,10/8/2004 11:36,LAVIS,5/11/2009 9:49,PKRUGER,TAW,SH
504,12,2,BV,Bow Valley,51.0667,-115.0667,1327.4,,N,,N,H,13/12/1999 15:14:31,FIRE_PROD,8/1/2004 13:21,FIRE_PROD,RS,BO
1572,5,6,BVL,Beaverlodge RCS,55.1966,-119.3964,745,,N,,Y,Y,13/04/2016 10:37:01,PKRUGER,,,MET,GP
892,12,4,BW,Buller Pb,50.8448,-115.3129,2275,,N,,N,H,25/08/2011 10:57:28,ESUMMERS,5/11/2014 8:38,PKRUGER,TAW,BO
495,,1,BX,Battle Creek,49.6528,-109.9861,1310.64,,N,,N,H,9/12/1999 16:08,FIRE_PROD,8/1/2004 13:21,FIRE_PROD,LO,
1491,2,4,BXT,Buffalo Hills Complex,57.5031,-116.4972,460,2,N,,N,H,5/6/2015 13:31,PKRUGER,19/07/2015 11:57:13,PKRUGER,TAW,FV
172,11,1,BY,BALDY,52.531667,-116.12632,2082.1,,N,,Y,Y,1/4/1998 10:24,DBA,15/12/2005 13:35:49,TGROSSE,LO,RM
175,11,1,BZ,BRAZEAU,53.038621,-115.435822,1101.3,,N,,Y,Y,1/4/1998 10:24,DBA,17/12/2004 10:08:07,KKEATS,LO,RM
43,13,5,C1,Livingstone Gap Auto,49.8793,-114.3827,1403,,N,,Y,Y,1/4/1998 10:24,DBA,1/4/2019 13:26,JWOLLIS,PAW,CR
44,13,5,C2,Castle Auto,49.3936,-114.3408,1352,,N,,Y,Y,1/4/1998 10:24,DBA,23/04/2007 09:04:21,PKRUGER,PAW,CR
45,13,5,C3,Poll Haven Auto,49.0293,-113.5951,1611,,N,,Y,Y,1/4/1998 10:24,DBA,19/10/2005 14:13:47,PKRUGER,PAW,CR
510,13,5,C4,Blairmore Ranger Station Auto,49.6086,-114.4514,1311,,Y,,Y,Y,20/09/2000 16:26:53,LAVIS,1/4/2019 13:26,JWOLLIS,PAW,CR
675,13,5,C5,Cypress Hills Ipp Auto,49.6356,-110.3296,1459,10,N,,Y,Y,22/07/2005 11:47:22,NNIMCHUK,1/4/2019 13:26,JWOLLIS,PAW,CR
154,3,1,CA,Chinchaga,57.1172,-118.3333,881,,N,,N,N,1/4/1998 10:24,DBA,4/10/2018 15:13,PKRUGER,LO,MA
2375,3,5,CAA,Chinchaga Auto,57.1117,-118.3333,880,,N,,Y,Y,4/10/2018 14:49,PKRUGER,,,PAW,MA
30,13,1,CB,CARBONDALE,49.43146,-114.358908,1807.4,,N,,Y,Y,1/4/1998 10:24,DBA,15/12/2005 13:36:04,TGROSSE,LO,CR
227,10,1,CC,CARROT CREEK,53.446196,-115.866734,1055.9,,N,,Y,Y,1/4/1998 10:24,DBA,9/12/2004 21:42,LDUCHARM,LO,ED
120,5,1,CD,CODESA,55.6668,-118.0801,743,,N,,N,H,1/4/1998 10:24,DBA,3/6/2004 12:09,LDUCHARM,LO,GP
177,11,1,CE,Cline,52.178,-116.4122,2049.5,,N,,N,N,1/4/1998 10:24,DBA,7/5/2015 12:02,PKRUGER,LO,RM
2591,1,4,CEB,Chuckegg Creek Fire Base,58.48,-117.176,300,,N,,Y,Y,23/05/2019 19:11:23,PKRUGER,,,TAW,OJ
2651,1,4,CEE,Chuckegg East,58.1661,-116.4618,327,,N,,Y,Y,5/7/2019 15:16,PAZUR,6/7/2019 11:14,PAZUR,TAW,OJ
2551,1,4,CET,Chuckegg Creek Fire West,58.2043,-117.512,388,,N,,Y,Y,21/05/2019 08:11:26,PKRUGER,8/6/2019 13:23,PAZUR,TAW,OJ
16,7,1,CF,Cambrian,59.2576,-110.8046,331,,N,,N,H,1/4/1998 10:24,DBA,8/11/2018 11:29,PKRUGER,LO,PY
2172,7,5,CFA,Cambrian AUTO,59.2576,-110.8046,325,,N,,Y,Y,22/06/2018 14:20:53,PKRUGER,,,PAW,PY
1871,7,4,CFT,Cambrian Taws,58.257,-110.805,331,,N,,N,H,1/5/2017 9:27,PKRUGER,12/2/2018 14:08,PKRUGER,TAW,PY
517,11,4,CG,Chungo,52.685,-116.6934,2250,,N,,N,H,30/05/2001 19:21:34,BHERZOG,30/07/2011 08:36:56,PKRUGER,TAW,RM
2511,11,4,CGT,Chungo PB,52.6435,-116.6858,1818,,N,,Y,Y,7/5/2019 11:12,PKRUGER,,,TAW,RM
151,3,1,CH,CLEAR HILLS,56.595908,-119.406042,1074,,N,,Y,Y,1/4/1998 10:24,DBA,13/12/2004 09:22:16,KKEATS,LO,MA
1531,1,4,CHT,Chin Complex,58.5262,-118.2913,338,2,N,,N,H,30/06/2015 08:46:30,PKRUGER,19/01/2018 11:09:04,PKRUGER,TAW,OJ
514,9,4,CI,Chisholm Fire 63,54.94,-114,680,,N,,N,H,27/05/2001 11:22:48,NNIMCHUK,8/1/2004 13:21,FIRE_PROD,TAW,LB
131,9,1,CK,Conklin,55.6225,-111.1735,677,,N,,N,H,1/4/1998 10:24,DBA,9/5/2018 13:08,PKRUGER,LO,LB
137,9,2,CL,Calling Lake,55.2089,-113.195,610,,N,,N,H,1/4/1998 10:24,DBA,9/5/2018 13:07,PKRUGER,RS,LB
126,9,1,CM,Chisholm,54.9411,-114.04,685.59,,N,,N,H,1/4/1998 10:24,DBA,16/11/2016 09:01:01,PKRUGER,LO,LB
1691,9,5,CMA,Chisholm Auto,54.9411,-114.04,685,,N,,Y,Y,23/08/2016 11:07:58,PKRUGER,28/08/2016 13:51:53,PKRUGER,PAW,LB
96,,3,CN,CAMERON (NWT),60.3,-117.1,855,,N,,N,H,1/4/1998 10:24,DBA,8/1/2004 13:21,FIRE_PROD,RZ,
95,,3,CO,CROW (WBF),59.5,-114.5,853,,N,,N,H,1/4/1998 10:24,DBA,8/1/2004 13:21,FIRE_PROD,RZ,
132,9,1,CP,Cowpar Lake,55.9534,-110.4972,553,,N,,N,H,1/4/1998 10:24,DBA,16/11/2016 09:01:01,PKRUGER,LO,LB
1772,9,5,CPA,COWPAR LAKE AUTO,55.9534,-110.4972,553,,N,,Y,Y,12/9/2016 13:09,PKRUGER,,,PAW,LB
228,10,2,CQ,Cold Creek,53.6072,-115.5744,823,,N,,N,H,1/4/1998 10:24,DBA,8/1/2004 13:21,FIRE_PROD,RS,ED
130,9,1,CR,CHRISTINA BASIN,55.588619,-111.849524,760,,N,,N,H,1/4/1998 10:24,DBA,18/11/2004 16:06:31,SSIMSER,LO,LB
482,13,2,CS,Castle,49.3931,-114.3367,1363.98,,N,,N,H,9/12/1999 14:55,FIRE_PROD,8/1/2004 13:21,FIRE_PROD,RS,CR
104,5,1,CT,COPTON,54.182117,-119.420101,1859.7,,N,,Y,Y,1/4/1998 10:24,DBA,15/12/2005 13:36:26,TGROSSE,LO,GP
162,4,1,CU,Cadotte,56.3035,-116.4302,733,,N,,N,H,1/4/1998 10:24,DBA,8/11/2018 11:31,PKRUGER,LO,RE
2451,4,5,CUA,Cadotte Auto,56.3035,-116.4302,730,,N,,Y,Y,16/10/2018 15:22:08,PAZUR,22/10/2018 08:25:08,PAZUR,PAW,RE
186,11,2,CW,Clearwater,51.9869,-115.2414,1280,,N,,N,H,1/4/1998 10:24,DBA,8/1/2004 13:21,FIRE_PROD,RS,RM
1032,3,6,CX,Cleardale Agrd,56.3145,-119.7449,630,,N,,N,H,16/04/2013 14:06:24,PKRUGER,19/01/2018 11:29:07,PKRUGER,MET,MA
2151,3,5,CXA,Cleardale AGDM,56.3203,-119.7479,635,,N,,Y,Y,5/6/2018 10:23,PKRUGER,,,PAW,MA
210,4,1,CY,Chipewyan Lakes,56.994,-113.4245,615.06,,N,,N,H,1/4/1998 10:24,DBA,23/01/2018 10:18:25,PKRUGER,LO,RE
1931,4,5,CYA,Chipewyan Lakes AUTO,56.994,-113.424,615,,N,,Y,Y,9/5/2017 13:12,PKRUGER,,,PAW,RE
505,13,2,CZ,Chain Lakes,50.2,-114.2,1371.6,,N,,N,H,13/12/1999 15:15:08,FIRE_PROD,8/1/2004 13:21,FIRE_PROD,RS,CR
121,5,2,DB,Debolt,55.2125,-118.0314,644,,N,,N,H,1/4/1998 10:24,DBA,8/1/2004 13:21,FIRE_PROD,RS,GP
198,4,1,DC,DOUCETTE,55.82087,-114.300555,692.11,,N,,N,H,1/4/1998 10:24,DBA,18/11/2004 16:23:00,SSIMSER,LO,RE
2013,10,5,DEV,Devona,53.2024,-118.021,1544,,N,,N,N,20/12/2017 14:13:01,PKRUGER,23/08/2018 09:10:31,PKRUGER,PAW,ED
152,3,1,DG,Doig,56.9637,-119.5275,1059,,N,,N,N,1/4/1998 10:24,DBA,3/4/2019 13:17,JWOLLIS,LO,MA
1411,3,5,DGA,Doig Auto,56.9644,-119.5264,1083,,N,,Y,Y,21/04/2015 13:45:16,PKRUGER,3/4/2019 10:16,JWOLLIS,PAW,MA
496,,1,DL,Davidson Lake,58.8833,-113.2167,243.84,,N,,N,H,9/12/1999 16:09,FIRE_PROD,8/1/2004 13:21,FIRE_PROD,LO,
1833,9,5,DLA,Duck Lake,54.6825,-113.9415,650,,N,,Y,Y,6/4/2017 14:19,PKRUGER,,,PAW,LB
193,6,1,DM,Deer Mountain,54.9134,-115.1621,1161.14,,N,,N,H,1/4/1998 10:24,DBA,23/01/2018 10:26:02,PKRUGER,LO,SH
1992,6,5,DMA,Deer Mountain Auto,54.9134,-115.1621,1161,,N,,Y,Y,2/9/2017 9:35,PKRUGER,,,PAW,SH
912,9,6,DP,Dapp Agrd,54.329,-113.9345,614,,N,,N,H,20/04/2012 09:26:51,PKRUGER,7/9/2018 11:10,PKRUGER,MET,LB
1594,9,5,DPA,Dapp Auto,54.329,-113.9345,619,,N,,N,Y,20/04/2016 11:16:48,PKRUGER,14/03/2018 13:35:28,LDUCHARM,PAW,LB
1811,9,5,DUA,Dupre Agcm,54.367,-110.8678,556,,N,,N,H,29/03/2017 10:42:26,PKRUGER,20/04/2018 09:58:52,JWOLLIS,PAW,LB
161,3,1,DW,Deadwood,56.6442,-117.3896,648,,Y,,N,N,1/4/1998 10:24,DBA,3/4/2019 13:18,JWOLLIS,LO,MA
2393,3,5,DWA,Deadwood Agcm,56.7154,-117.5435,551,,N,,Y,Y,10/10/2018 9:56,PAZUR,10/10/2018 10:31,PAZUR,PAW,MA
67,10,5,E1,Wildhay Auto,53.8614,-117.5583,1041,,N,,Y,Y,1/4/1998 10:24,DBA,8/1/2004 13:20,FIRE_PROD,PAW,ED
68,10,5,E2,Schwartz Creek  Auto,53.4244,-116.5203,986,,N,,N,N,1/4/1998 10:24,DBA,7/9/2018 11:05,PKRUGER,PAW,ED
69,10,5,E3,Casket Mountain Auto,53.8053,-119.9061,1614,,N,,N,H,1/4/1998 10:24,DBA,5/11/2014 8:39,PKRUGER,PAW,ED
480,10,5,E4,Hinton Auto,53.4003,-117.5791,1031,,N,,N,H,10/9/1999 11:20,NNIMCHUK,5/11/2009 9:48,PKRUGER,PAW,ED
612,10,5,E5,Grande Cache,53.9165,-118.8666,1250,,N,,Y,Y,10/6/2003 13:33,ZMISZTAL,6/6/2008 14:26,NNIMCHUK,PAW,ED
63,10,3,E6,HINTON (ETC),53.3917,-117.6,1006,,N,,N,H,1/4/1998 10:24,DBA,8/1/2004 13:21,FIRE_PROD,RZ,ED
751,10,5,E7,Entrance Auto,53.3799,-117.7012,1045,,N,,Y,Y,16/09/2009 19:53:08,PKRUGER,16/09/2009 20:12:53,PKRUGER,PAW,ED
222,6,1,EA,Eagle,54.4569,-116.4409,1048.28,,N,,N,H,1/4/1998 10:24,DBA,5/11/2014 13:16,PKRUGER,LO,SH
1251,6,5,EAA,Eagle AUTO,54.4569,-116.4409,1048,,N,,Y,Y,28/08/2014 14:57:40,PKRUGER,,,PAW,SH
34,12,2,EB,ELBOW ,50.9006,-114.6953,1494,,N,,N,H,1/4/1998 10:24,DBA,8/1/2004 13:21,FIRE_PROD,RS,BO
111,5,1,EC,Economy Creek,54.7916,-118.2348,857.6,,N,,N,H,1/4/1998 10:24,DBA,24/10/2018 08:50:48,PKRUGER,LO,GP
2472,5,5,ECA,Economy Creek Auto,54.7916,-118.2348,857,,Y,,Y,Y,24/10/2018 08:50:40,PKRUGER,24/10/2018 08:50:52,PKRUGER,PAW,GP
8,8,1,ED,Edra,57.8479,-113.2525,802,,N,,N,H,1/4/1998 10:24,DBA,8/11/2018 11:29,PKRUGER,LO,MM
2332,8,5,EDA,Edra Auto,57.8479,-113.2525,800,,N,,Y,Y,25/09/2018 09:25:14,PKRUGER,25/09/2018 10:44:15,PAZUR,PAW,MM
195,6,1,EH,Enilda,55.3196,-116.1968,716.52,,N,,N,H,1/4/1998 10:24,DBA,23/01/2018 10:26:02,PKRUGER,LO,SH
1976,6,5,EHA,ENILDA  AUTO,55.319,-116.197,717,,N,,Y,Y,4/7/2017 13:10,PKRUGER,,,PAW,SH
5,8,1,EL,Ells River,57.2061,-112.3133,573,,N,,N,H,1/4/1998 10:24,DBA,8/11/2018 11:30,PKRUGER,LO,MM
2311,8,5,ELA,ELLS RIVER AUTO,57.2061,-112.3133,570,,N,,Y,Y,20/09/2018 11:24:18,PKRUGER,,,PAW,MM
674,3,4,EM,Emend 05,56.7419,-118.3523,663,,N,,N,N,3/5/2005 14:45,LAVIS,12/2/2018 14:09,PKRUGER,TAW,MA
483,11,2,ER,Elk River,52.95,-115.65,293.83,,N,,N,H,9/12/1999 14:57,FIRE_PROD,8/1/2004 13:21,FIRE_PROD,RS,RM
2032,3,5,EUA,Eureka River AGCM,56.5094,-118.8444,672,,N,,Y,Y,25/04/2018 09:44:15,PKRUGER,,,PAW,MA
89,2,5,F1,Picadelly Auto,57.6509,-114.5273,367,,N,,Y,Y,1/4/1998 10:24,DBA,14/10/2011 09:51:59,ESUMMERS,PAW,FV
90,1,5,F2,Ponderosa Auto,59.2115,-117.063,388,,Y,,Y,Y,1/4/1998 10:24,DBA,19/01/2018 11:16:07,PKRUGER,PAW,OJ
91,2,5,F3,Lambert Auto,58.0347,-114.1414,368,,N,,Y,Y,1/4/1998 10:24,DBA,23/04/2007 09:04:37,PKRUGER,PAW,FV
92,2,5,F4,Whitesands Auto,59.4311,-114.9027,962,,N,,Y,Y,1/4/1998 10:24,DBA,23/04/2007 09:04:40,PKRUGER,PAW,FV
93,1,5,F5,Bistcho Lake Auto,59.912,-118.9631,576,,N,,Y,Y,1/4/1998 10:24,DBA,14/10/2011 09:54:34,ESUMMERS,PAW,OJ
652,1,4,F6,Rainbow Lake,58.4969,-119.4103,540,,N,,N,H,18/05/2004 13:34:38,LAVIS,7/5/2015 15:57,PKRUGER,TAW,OJ
229,6,2,FA,Ft Assiniboine,54.3414,-114.8083,640,,N,,N,N,1/4/1998 10:24,DBA,24/05/2013 10:54:48,PKRUGER,RS,SH
231,6,2,FC,FOX CREEK,54.38,-116.8033,866,,N,,N,H,1/4/1998 10:24,DBA,8/1/2004 13:21,FIRE_PROD,RS,SH
81,2,1,FG,FOGGY MOUNTAIN,58.685961,-114.994718,899,,N,,Y,Y,1/4/1998 10:24,DBA,9/12/2004 21:42,LDUCHARM,LO,FV
17,8,2,FK,Fort Mckay,57.0756,-111.5939,235,,N,,N,H,1/4/1998 10:24,DBA,4/3/2004 16:15,LAVIS,RS,MM
519,13,1,FM,Forget-Me-Not,50.755556,-114.688889,2321,,N,,N,H,15/01/2002 11:12:53,APP_SUPER,6/1/2005 13:55,KKEATS,LO,CR
156,3,1,FO,Fontas,57.7803,-119.5015,1055,,N,,N,H,1/4/1998 10:24,DBA,8/11/2018 11:31,PKRUGER,LO,MA
2392,3,5,FOA,Fontas Auto,57.7803,-119.5015,1050,,N,,Y,Y,10/10/2018 9:54,PAZUR,,,PAW,MA
453,5,3,FP,Frying Pan,54.4669,-118.2225,1007,,N,,N,H,1/5/1998 14:15,PHQ_SUPER_1,7/5/2005 14:44,LAVIS,RZ,GP
484,9,2,FR,Frog Lake,53.83,-110.42,177.39,,N,,N,H,9/12/1999 14:59,FIRE_PROD,8/1/2004 13:21,FIRE_PROD,RS,LB
191,6,1,FT,Flat Top,55.1457,-114.8153,1038.7,,N,,N,H,1/4/1998 10:24,DBA,23/01/2018 10:26:02,PKRUGER,LO,SH
1991,6,5,FTA,Flat Top Auto,55.1457,-114.8153,1038,,N,,Y,Y,2/9/2017 9:34,PKRUGER,,,PAW,SH
86,2,2,FV,Fort Vermilion,58.3864,-116.0186,247,,N,,N,N,1/4/1998 10:24,DBA,28/04/2015 16:10:05,NNIMCHUK,RS,FV
97,2,6,FX,Fort Vermilion,58.3822,-116.0403,289,,N,,N,N,1/4/1998 10:24,DBA,19/01/2018 11:15:32,PKRUGER,MET,FV
681,11,4,FY,Forty Mile Pb,51.8827,-115.7414,1585,3,N,,N,H,25/04/2007 15:27:36,NNIMCHUK,12/2/2013 11:52,PKRUGER,TAW,RM
118,5,5,G1,Kakwa Auto,54.175,-119.0592,1344,,N,,Y,Y,1/4/1998 10:24,DBA,23/04/2007 09:04:49,PKRUGER,PAW,GP
119,5,5,G2,Mistanusk Auto,54.5928,-120.0092,1112,,N,,Y,Y,1/4/1998 10:24,DBA,23/04/2007 09:04:52,PKRUGER,PAW,GP
88,2,6,GA,Garden River Auto,58.8833,-113.8667,236,,N,,N,H,1/4/1998 10:24,DBA,4/5/2004 11:27,LAVIS,MET,FV
65,10,2,GC,Grande Cache,53.8917,-119.1047,1250,,N,,N,H,1/4/1998 10:24,DBA,21/04/2004 15:57:47,NNIMCHUK,RS,ED
116,5,2,GD,Grovedale,54.98,-118.9368,671,,N,,N,N,1/4/1998 10:24,DBA,5/4/2016 8:19,PKRUGER,RS,GP
3,8,1,GE,Grande,56.3027,-112.2258,559,,N,,N,N,1/4/1998 10:24,DBA,9/5/2019 8:17,PKRUGER,LO,MM
61,10,1,GF,GRAVE  FLATS,52.887903,-116.991799,2076,,N,,Y,Y,1/4/1998 10:24,DBA,15/12/2005 13:37:04,TGROSSE,LO,ED
2251,10,4,GFT,Grave Flats Temp,52.88,-116.99,2075,,N,,N,H,9/8/2018 9:53,PKRUGER,7/11/2018 10:41,PKRUGER,TAW,ED
32,12,2,GH,GHOST,51.3161,-114.9353,1372,,N,,N,H,1/4/1998 10:24,DBA,8/1/2004 13:21,FIRE_PROD,RS,BO
1,8,1,GL,Gordon Lake,56.6176,-110.4946,515,,N,,N,H,1/4/1998 10:24,DBA,8/11/2018 11:31,PKRUGER,LO,MM
1611,8,5,GLA,Gordon Lake Auto,56.6175,-110.4944,515,,N,,Y,Y,5/5/2016 16:36,PKRUGER,19/04/2018 10:09:00,PKRUGER,PAW,MM
221,6,1,GM,Goose Mountain,54.7507,-116.0344,1384.67,,N,,N,N,1/4/1998 10:24,DBA,6/5/2015 14:26,PKRUGER,LO,SH
1371,6,5,GMA,Goose Mountain Auto,54.7506,-116.0332,1385,,N,,Y,Y,2/4/2015 13:52,PKRUGER,15/11/2016 15:36:37,PKRUGER,PAW,SH
145,9,3,GR,Goodridge,54.4876,-111.369,560,,N,,N,H,1/4/1998 10:24,DBA,8/1/2004 13:21,FIRE_PROD,RZ,LB
199,4,1,GT,Gift Lake,55.9012,-115.7573,691.21,,N,,N,H,1/4/1998 10:24,DBA,23/01/2018 10:18:25,PKRUGER,LO,RE
1854,4,5,GTA,Gift Lake Auto,55.9012,-115.76,691,,N,,Y,Y,22/04/2017 13:40:00,PKRUGER,,,PAW,RE
70,10,3,GV,Gregg River,53.0212,-117.3705,1800,,N,,N,H,1/4/1998 10:24,DBA,8/1/2004 13:21,FIRE_PROD,RZ,ED
236,12,1,HB,HAILSTONE BUTTE,50.208784,-114.457609,2370,,N,,Y,N,1/4/1998 10:24,DBA,15/12/2005 13:37:17,TGROSSE,LO,BO
166,3,2,HC,Hines Creek,56.2031,-118.6407,671,,N,,Y,Y,1/4/1998 10:24,DBA,16/11/2017 09:24:29,PKRUGER,RS,MA
1651,8,4,HCF,Horse Creek Fire,56.379,-111.4498,369,,N,,N,H,16/05/2016 12:26:12,PKRUGER,19/01/2018 11:09:04,PKRUGER,TAW,MM
497,,1,HE,Hay Camp,59.55,-111.4833,243.84,,N,,N,H,9/12/1999 16:10,FIRE_PROD,8/1/2004 13:21,FIRE_PROD,LO,
158,3,1,HH,HAWK HILLS,57.656808,-117.423254,730,,N,,Y,Y,1/4/1998 10:24,DBA,9/12/2004 21:42,LDUCHARM,LO,MA
833,1,6,HI,High Level Airport,58.6217,-117.1647,338,,N,,N,H,6/4/2011 15:01,ESUMMERS,19/01/2018 10:43:00,PKRUGER,MET,OJ
155,3,1,HK,Hotchkiss,57.3339,-118.9593,990.01,,N,,N,H,1/4/1998 10:24,DBA,8/11/2018 11:32,PKRUGER,LO,MA
2432,3,5,HKA,Hotchkiss Auto,57.3339,-118.9593,990,,N,,Y,Y,15/10/2018 15:13:31,PKRUGER,,,PAW,MA
135,9,1,HL,Heart Lake,54.915,-111.3397,866.05,,N,,N,H,1/4/1998 10:24,DBA,16/11/2016 09:01:01,PKRUGER,LO,LB
1694,9,5,HLA,Heart Lake Auto,54.915,-111.34,866,,N,,Y,Y,23/08/2016 11:07:58,PKRUGER,28/08/2016 13:54:21,PKRUGER,PAW,LB
194,6,1,HM,House Mountain,55.0473,-115.6028,1176.34,,N,,N,H,1/4/1998 10:24,DBA,23/01/2018 10:26:02,PKRUGER,LO,SH
1951,6,5,HMA,House Mountain Auto,55.0473,-115.6016,1176,,N,,Y,Y,22/06/2017 11:54:29,PKRUGER,1/5/2018 10:41,PKRUGER,PAW,SH
485,10,2,HN,Hinton School,53.4006,-117.5783,1008.46,,N,,N,H,9/12/1999 15:00,FIRE_PROD,8/1/2004 13:21,FIRE_PROD,RS,ED
931,6,4,HO,Horse Creek Pb,54.0243,-117.8439,1136,,N,,N,H,4/5/2012 14:03,PKRUGER,7/5/2015 15:57,PKRUGER,TAW,SH
570,6,6,HP,High Prairie Agrd,55.3958,-116.4795,602,,N,,N,H,29/04/2003 09:01:12,NNIMCHUK,17/08/2015 13:28:38,PKRUGER,MET,SH
1373,6,5,HPA,High Prairie Agdm,55.3958,-116.4795,602,,N,,Y,Y,2/4/2015 14:42,PKRUGER,13/01/2017 10:39:16,PKRUGER,PAW,SH
1432,11,4,HR,Hummingbird,52.078,-116.002,1700,2,N,,N,H,24/04/2015 11:44:53,PAZUR,19/01/2018 11:09:04,PKRUGER,TAW,RM
486,10,2,HS,Hinton,53.3994,-117.5806,1051.56,,N,,N,H,9/12/1999 15:03,FIRE_PROD,8/1/2004 13:21,FIRE_PROD,RS,ED
1131,3,4,HT,Hutton Creek,56.75,-117.216,748,,N,,N,N,30/04/2014 16:08:30,PKRUGER,12/6/2018 11:10,PKRUGER,TAW,MA
55,10,1,HU,HUCKLEBERRY,53.988039,-118.186228,1431.9,,N,,Y,Y,1/4/1998 10:24,DBA,16/08/2005 14:18:44,KKEATS,LO,ED
632,12,4,HV,Hunter  Valley,51.57,-115.25,1730,,N,,N,H,6/8/2003 9:50,NNIMCHUK,18/03/2004 13:54:21,APP_SUPER,TAW,BO
487,13,2,HW,Highwood,50.3862,-114.6252,453.85,,N,,N,H,9/12/1999 15:05,FIRE_PROD,8/1/2004 13:21,FIRE_PROD,RS,CR
1011,3,4,HZ,Hotchkiss Fire,57.265,-119.015,987,,N,,N,H,16/07/2012 13:45:04,ECHAPMAN,12/2/2013 11:49,PKRUGER,TAW,MA
220,6,1,IM,Imperial,54.4666,-115.5722,1201.97,,N,,N,H,1/4/1998 10:24,DBA,5/11/2014 13:16,PKRUGER,LO,SH
1192,6,5,IMA,Imperial AUTO,54.4666,-115.5722,1202,,N,,Y,Y,7/8/2014 9:26,PKRUGER,,,PAW,SH
29,13,1,IS,IRONSTONE,49.56768,-114.501487,2078.5,,N,,Y,Y,1/4/1998 10:24,DBA,15/12/2005 13:37:42,TGROSSE,LO,CR
2351,4,5,JCA,Jean Cote AGCM,55.9129,-117.1198,638,,N,,Y,Y,25/09/2018 16:02:24,PKRUGER,,,PAW,RE
488,6,2,JD,Judy Creek,54.7317,-115.4019,1127.76,,N,,N,H,9/12/1999 15:05,FIRE_PROD,8/1/2004 13:21,FIRE_PROD,RS,SH
7,8,1,JE,JEAN LAKE,57.497442,-113.883463,745,,N,,Y,Y,1/4/1998 10:24,DBA,11/1/2005 13:48,KKEATS,LO,MM
2632,8,5,JEA,Jean Lake Auto,57.4974,-113.8835,745,,N,,Y,Y,10/6/2019 15:15,PAZUR,11/6/2019 12:09,PAZUR,PAW,MM
811,5,4,JF,Jackfish Lake - Pb,55.5517,-119.6936,904,,N,,N,H,28/09/2010 09:15:22,PKRUGER,5/11/2014 8:38,PKRUGER,TAW,GP
237,12,1,JM,JUNCTION MOUNTAIN,50.565226,-114.64899,2240.5,,N,,Y,N,1/4/1998 10:24,DBA,15/12/2005 13:38:04,TGROSSE,LO,BO
13,8,1,JO,Johnson Lake,57.5749,-110.3288,592,,N,,N,H,1/4/1998 10:24,DBA,8/11/2018 11:30,PKRUGER,LO,MM
2411,8,5,JOA,Johnson Lake Auto,57.5749,-110.3288,590,,N,,Y,Y,11/10/2018 13:10,JWOLLIS,,,PAW,MM
98,1,3,JR,John D'Or,58.511,-115.1369,274,,N,,N,H,1/4/1998 10:24,DBA,8/1/2004 13:21,FIRE_PROD,RZ,OJ
113,5,1,KA,KAKWA,54.420719,-118.983973,1229.8,,N,,Y,Y,1/4/1998 10:24,DBA,9/12/2004 21:41,LDUCHARM,LO,GP
691,9,1,KB,Kirby Lake,55.3585,-110.6451,690.5,,N,,N,H,6/4/2009 11:08,JTAKYI,16/11/2016 09:01:01,PKRUGER,LO,LB
1731,9,5,KBA,Kirby Lake Auto,55.3585,-110.645,690,,N,,Y,Y,2/9/2016 13:43,AOU,,,PAW,LB
35,12,3,KC,Kananaskis Country,50.7101,-115.1205,1631,,N,,N,H,1/4/1998 10:24,DBA,8/1/2004 13:21,FIRE_PROD,RZ,BO
49,12,1,KD,MOUNT KIDD,50.9121,-115.1695,2141,,N,,N,H,1/4/1998 10:24,DBA,3/6/2004 12:17,LDUCHARM,LO,BO
157,3,1,KE,Keg,57.6404,-118.3527,950,,N,,N,H,1/4/1998 10:24,DBA,27/11/2018 11:42:27,PKRUGER,LO,MA
2491,3,5,KEA,Keg Auto,57.6404,-118.3527,950,,N,,Y,Y,19/11/2018 13:26:17,PKRUGER,,,PAW,MA
164,3,2,KG,Keg River,57.7336,-117.6174,396,,N,,N,N,1/4/1998 10:24,DBA,27/05/2009 09:53:34,PKRUGER,RS,MA
187,11,1,KI,Kiska,52.2352,-116.1486,2070,,N,,N,H,1/4/1998 10:24,DBA,11/3/2004 10:21,LAVIS,LO,RM
28,12,1,KK,KANANASKIS,50.61275,-115.069447,2128.9,,N,,Y,Y,1/4/1998 10:24,DBA,15/12/2005 13:38:14,TGROSSE,LO,BO
489,,2,KL,Cline Wbuff,59.5,-115,0,,N,,N,H,9/12/1999 15:07,FIRE_PROD,3/4/2009 13:23,APP_SUPER,RS,
163,4,1,KM,Kimiwan,55.9939,-116.6066,770,,N,,N,N,1/4/1998 10:24,DBA,4/10/2018 15:13,PKRUGER,LO,RE
2372,4,5,KMA,Kimiwan Auto,55.994,-116.6066,770,,N,,Y,Y,4/10/2018 11:07,PKRUGER,,,PAW,RE
12,7,1,KN,KEANE,58.307136,-110.27508,385,,N,,N,H,1/4/1998 10:24,DBA,3/4/2008 13:47,RMCCOWAT,LO,PY
211,6,2,KO,KINUSO,55.3181,-115.4364,519,,N,,N,H,1/4/1998 10:24,DBA,8/1/2004 13:21,FIRE_PROD,RS,SH
188,11,3,KP,Kootenay Plains,52.1969,-116.5384,1220,,N,,N,H,1/4/1998 10:24,DBA,8/1/2004 13:21,FIRE_PROD,RZ,RM
50,13,1,KY,KEYSTONE,51.3745,-114.7887,1600,,N,,N,H,1/4/1998 10:24,DBA,3/6/2004 12:10,LDUCHARM,LO,CR
143,9,5,L1,BOVINE CREEK AUTO,56.1077,-112.5494,518,,N,,Y,Y,1/4/1998 10:24,DBA,8/1/2004 13:20,FIRE_PROD,PAW,LB
144,9,5,L2,Ground Zero Auto,55.0053,-110.6079,737,,N,,Y,Y,1/4/1998 10:24,DBA,30/05/2008 11:54:45,PKRUGER,PAW,LB
21,8,5,L3,Dunkirk Auto,56.7683,-112.4878,479,,Y,,Y,Y,1/4/1998 10:24,DBA,25/05/2012 11:08:15,PKRUGER,PAW,MM
22,8,5,L4,LEGEND AUTO,57.4511,-112.8792,853,,N,,N,H,1/4/1998 10:24,DBA,8/1/2004 13:21,FIRE_PROD,PAW,MM
23,7,5,L5,Keane Auto,58.3094,-110.2822,337,,N,,Y,Y,1/4/1998 10:24,DBA,23/04/2007 09:05:01,PKRUGER,PAW,PY
99,1,1,LA,LAMBERT CREEK,58.0444,-114.1559,308,,N,,N,H,1/4/1998 10:24,DBA,3/6/2004 12:10,LDUCHARM,LO,OJ
139,9,2,LB,BEAVER LAKE,54.7608,-111.8974,565,,N,,N,H,1/4/1998 10:24,DBA,8/1/2004 13:21,FIRE_PROD,RS,LB
140,9,2,LC,LACOREY,54.4494,-110.7622,579,,N,,Y,Y,1/4/1998 10:24,DBA,8/1/2004 13:20,FIRE_PROD,RS,LB
100,1,2,LE,La Crete,58.1833,-116.4,328,,N,,N,H,1/4/1998 10:24,DBA,8/1/2004 13:21,FIRE_PROD,RS,OJ
6,8,1,LG,LEGEND,57.450362,-112.879284,855,,N,,Y,Y,1/4/1998 10:24,DBA,15/12/2004 09:34:00,KKEATS,LO,MM
2631,8,5,LGA,Legend Auto,57.4504,-112.8793,855,,N,,Y,Y,10/6/2019 15:07,PAZUR,11/6/2019 12:10,PAZUR,PAW,MM
245,9,6,LH,Lac La Biche Airport,54.76,-112.02,571,,N,,Y,Y,1/4/1998 10:24,DBA,19/01/2018 11:24:18,PKRUGER,MET,LB
209,4,1,LK,Livock,56.4611,-113.1913,650,,N,,N,N,1/4/1998 10:24,DBA,3/4/2019 13:18,JWOLLIS,LO,RE
142,9,3,LL,LONG LAKE,54.4164,-112.7329,640,,N,,N,H,1/4/1998 10:24,DBA,8/1/2004 13:21,FIRE_PROD,RZ,LB
1773,9,5,LMA,LEISMER AUTO,55.6897,-111.2847,583,,N,,Y,Y,12/9/2016 13:11,PKRUGER,,,PAW,LB
214,4,3,LN,LOON RIVER,57.1333,-115.0667,472,,N,,N,H,1/4/1998 10:24,DBA,8/1/2004 13:21,FIRE_PROD,RZ,RE
62,10,1,LO,LOVETT,53.031118,-116.662031,1476.61,,N,,Y,Y,1/4/1998 10:24,DBA,9/12/2004 21:41,LDUCHARM,LO,ED
2131,1,4,LRT,Little Rapids,58.8775,-116.5308,1841,,N,,N,H,31/05/2018 09:15:22,PKRUGER,7/6/2018 10:08,AOU,TAW,OJ
490,13,2,LS,Livingstone Gap,49.8777,-114.3819,1417.32,,N,,N,H,9/12/1999 15:16,FIRE_PROD,2/3/2004 15:39,LAVIS,RS,CR
631,13,4,LT,Lost Creek Fire,49.56,-114.47,1583,,N,,N,H,28/07/2003 12:47:46,NNIMCHUK,18/03/2004 13:54:38,APP_SUPER,TAW,CR
238,13,1,LV,LIVINGSTONE,49.914704,-114.358585,2172.7,,N,,Y,N,1/4/1998 10:24,DBA,15/12/2005 13:38:39,TGROSSE,LO,CR
54,10,1,MB,MAYBERNE,53.861395,-116.665672,1453.2,,N,,Y,Y,1/4/1998 10:24,DBA,18/11/2004 16:26:40,SSIMSER,LO,ED
167,4,2,MC,MCLENNAN,55.7147,-116.8906,625,,N,,Y,Y,1/4/1998 10:24,DBA,8/1/2004 13:20,FIRE_PROD,RS,RE
2613,4,4,MCT,McMillan Complex,55.646,-114.5599,650,,N,,Y,Y,27/05/2019 09:23:25,PAZUR,,,TAW,RE
479,13,1,MD,Cypress Hills Provincial ,49.667,-110.1678,1200,,N,,N,H,3/8/1999 15:06,LAVIS,7/9/2005 9:15,LAVIS,LO,CR
878,8,4,MF,Mcmurray Fire,57.3496,-111.5612,336,,N,,N,H,24/05/2011 11:08:45,ESUMMERS,11/4/2012 15:30,PKRUGER,TAW,MM
171,3,2,MG,Manning,56.9208,-117.6397,488,,N,,N,H,1/4/1998 10:24,DBA,4/5/2004 11:17,LAVIS,RS,MA
26,12,1,MH,MOCKINGBIRD HILL,51.424822,-115.071733,1906.6,,N,,Y,Y,1/4/1998 10:24,DBA,15/12/2005 13:38:57,TGROSSE,LO,BO
685,8,4,MK,Mckay River ,57.01,-111.55,369,,N,,N,H,15/06/2007 13:58:41,PKRUGER,5/11/2014 8:38,PKRUGER,TAW,MM
122,,3,ML,Moonshine,55.8797,-119.2328,800,,N,,N,H,1/4/1998 10:24,DBA,8/1/2004 13:21,FIRE_PROD,RZ,
18,8,6,MM,Ft Mcmurray,56.65,-111.2208,369,,N,,N,H,1/4/1998 10:24,DBA,4/5/2004 11:25,LAVIS,MET,MM
192,4,1,MN,Meridian,55.553,-114.1774,940,,N,,N,N,1/4/1998 10:24,DBA,9/5/2019 8:18,PKRUGER,LO,RE
57,10,1,MO,MOBERLY,53.53288,-118.024039,1676.2,,N,,Y,Y,1/4/1998 10:24,DBA,15/12/2005 13:39:07,TGROSSE,LO,ED
1672,10,4,MOB,Moberly Taws,53.5329,-118.024,1675,,N,,N,H,30/06/2016 14:48:30,PKRUGER,19/01/2018 11:09:04,PKRUGER,TAW,ED
475,1,4,MP,Moose Prairie Sbw,59.1,-118,0,,N,,N,H,19/05/1999 15:55:00,LAVIS,8/1/2004 13:21,FIRE_PROD,TAW,OJ
202,4,1,MQ,Muskwa,56.0815,-114.6548,681,,N,,N,H,1/4/1998 10:24,DBA,23/01/2018 10:18:26,PKRUGER,LO,RE
1979,4,5,MQA,Muskwa  Auto,56.0815,-114.6548,681,,N,,Y,Y,4/7/2017 13:19,PKRUGER,4/7/2017 13:38,PKRUGER,PAW,RE
190,6,1,MR,Marten Mountain,55.4709,-114.787,1005,,N,,N,N,1/4/1998 10:24,DBA,9/5/2019 8:17,PKRUGER,LO,SH
239,12,1,MS,MOOSE  MOUNTAIN,50.938941,-114.837913,2431,,N,,Y,N,1/4/1998 10:24,DBA,15/12/2005 13:39:16,TGROSSE,LO,BO
506,12,3,MT,Mountainaire Lodge,51.7421,-115.2849,1444,,N,,N,H,13/12/1999 15:15:38,FIRE_PROD,2/3/2004 15:18,LAVIS,RZ,BO
15,8,1,MU,Muskeg Mountain,57.1353,-110.8942,615,,N,,N,H,1/4/1998 10:24,DBA,8/11/2018 11:30,PKRUGER,LO,MM
2371,8,5,MUA,Muskeg Mountain Auto,57.1353,-110.8942,610,,N,,Y,Y,4/10/2018 11:06,PKRUGER,,,PAW,MM
1831,8,4,MUT,Muskeg ,57.1353,-110.8942,615,,N,,N,H,6/4/2017 13:52,PKRUGER,19/01/2018 11:09:04,PKRUGER,TAW,MM
128,9,1,MY,May,55.5623,-112.4049,866,,N,,N,H,1/4/1998 10:24,DBA,16/11/2016 09:01:01,PKRUGER,LO,LB
1751,9,5,MYA,May RAWS,55.5623,-112.4049,866,,N,,Y,Y,8/9/2016 13:06,PKRUGER,,,PAW,LB
690,8,4,MZ,Muskeg Fire,57.0276,-110.7686,300,3,N,,N,H,15/06/2008 20:05:32,NNIMCHUK,11/4/2012 15:30,PKRUGER,TAW,MM
123,5,3,NC,Camp 11(Ncfi),54.5558,-117.8633,877,,N,,N,H,1/4/1998 10:24,DBA,2/3/2004 15:19,LAVIS,RZ,GP
178,11,2,ND,Nordegg,52.4667,-116.0667,1350,,N,,N,N,1/4/1998 10:24,DBA,25/04/2006 14:26:43,PKRUGER,RS,RM
1591,11,5,NDA,Nordegg Auto,52.4667,-116.0833,1362,,N,,N,N,20/04/2016 10:52:29,PKRUGER,23/04/2016 15:02:37,PKRUGER,PAW,RM
684,12,4,NE,Mt Nestor-Pb,50.9,-115.3878,1615,3,N,,N,H,10/5/2007 11:47,NNIMCHUK,7/5/2015 15:57,PKRUGER,TAW,BO
124,5,3,NF,Camp 5 (Ncfi),54.4031,-118.73,1090,,N,,N,H,1/4/1998 10:24,DBA,2/3/2004 15:20,LAVIS,RZ,GP
520,3,1,NH,Naylor Hills,57.658333,-117.711111,792,,N,,N,H,15/01/2002 11:12:53,APP_SUPER,6/1/2005 13:53,KKEATS,LO,MA
498,9,1,NL,Narrow Lakes,54.5667,-113.6833,731.52,,N,,N,H,9/12/1999 16:11,FIRE_PROD,8/1/2004 13:21,FIRE_PROD,LO,LB
108,5,1,NM,NOSE MOUNTAIN,54.563505,-119.631605,1487.2,,N,,Y,Y,1/4/1998 10:24,DBA,13/12/2004 09:23:44,KKEATS,LO,GP
1351,5,4,NMR,Nose Mtn Pb,54.5532,-119.6317,1471,2,N,,N,N,26/03/2015 15:28:11,NNIMCHUK,19/05/2015 10:19:23,PKRUGER,TAW,GP
153,3,1,NO,Notikewin,56.869,-118.599,937,,N,,N,H,1/4/1998 10:24,DBA,8/11/2018 11:32,PKRUGER,LO,MA
2476,3,5,NOA,Notikewin Auto,56.869,-118.599,940,,N,,Y,Y,24/10/2018 11:23:09,PKRUGER,,,PAW,MA
1391,5,4,NR,Nose Mountain Pb,54.5532,-119.6317,1471,3,N,,N,N,17/04/2015 12:25:26,NNIMCHUK,19/07/2015 13:23:51,PKRUGER,TAW,GP
676,11,6,NX,Nordegg,52.48,-116.16,1362,,N,,Y,Y,10/4/2006 13:36,PKRUGER,19/01/2018 11:18:56,PKRUGER,MET,RM
59,10,1,OB,OBED,53.566864,-117.504746,1605.39,,N,,Y,Y,1/4/1998 10:24,DBA,9/12/2004 21:42,LDUCHARM,LO,ED
499,11,1,OC,O'Chiese,52.775,-115.7236,1112.52,,N,,N,H,9/12/1999 16:12,FIRE_PROD,8/1/2004 13:21,FIRE_PROD,LO,RM
141,9,6,OD,COLD LAKE,54.4166,-110.2833,541,,N,,Y,Y,1/4/1998 10:24,DBA,8/1/2004 13:20,FIRE_PROD,MET,LB
84,1,2,OJ,High Level,58.6117,-117.1586,338,,N,,N,H,1/4/1998 10:24,DBA,12/2/2013 11:52,PKRUGER,RS,OJ
206,4,1,OL,Otter Lakes,56.6974,-115.9231,784,,N,,N,H,1/4/1998 10:24,DBA,23/01/2018 10:18:26,PKRUGER,LO,RE
1973,4,5,OLA,OTTER LAKES AUTO,56.6974,-115.9231,784,,N,,Y,Y,4/7/2017 13:00,PKRUGER,,,PAW,RE
168,3,5,P1,Shell Hamberg,57.3511,-119.7606,769,,N,,Y,Y,1/4/1998 10:24,DBA,4/3/2019 11:24,JWOLLIS,PAW,MA
169,4,5,P2,JACKPINE AUTO,56.8808,-116.5592,663,,N,,Y,Y,1/4/1998 10:24,DBA,8/1/2004 13:20,FIRE_PROD,PAW,RE
208,4,1,PA,Panny,57.178,-114.6136,625,,N,,N,H,1/4/1998 10:24,DBA,23/01/2018 10:18:26,PKRUGER,LO,RE
1932,4,5,PAA,Panny Auto,57.178,-114.614,625,,N,,Y,Y,9/5/2017 13:13,PKRUGER,,,PAW,RE
523,5,4,PB,Canyon Creek,55.6017,-117.583,580,,N,,N,H,30/04/2002 09:43:58,NNIMCHUK,8/1/2004 13:21,FIRE_PROD,TAW,GP
1471,9,4,PC,Pony Creek Temp,55.8233,-111.0165,600,3,N,,N,H,1/6/2015 14:50,AOU,11/8/2015 11:08,PKRUGER,TAW,LB
1451,9,4,PCT,Pony Creek Fire,55.8407,-111.0004,600,2,N,,N,H,30/05/2015 12:22:38,PKRUGER,11/8/2015 11:07,PKRUGER,TAW,LB
75,1,1,PD,PETITOT,59.522566,-119.607591,780,,N,,Y,Y,1/4/1998 10:24,DBA,16/08/2005 14:26:52,KKEATS,LO,OJ
971,5,6,PE,Peoria Agrd,55.6212,-118.293,621,,N,,N,H,4/7/2012 11:50,PKRUGER,8/11/2018 11:33,PKRUGER,MET,GP
2092,5,5,PEA,Peoria AGDM,55.6212,-118.293,621,,N,,Y,Y,23/05/2018 14:17:37,PKRUGER,,,PAW,GP
508,12,1,PG,Pigeon Mountain,51.0458,-115.0667,1828.8,,N,,N,H,13/12/1999 15:17:13,FIRE_PROD,8/1/2004 13:21,FIRE_PROD,LO,BO
500,11,1,PI,Pimple,54.4958,-115.4639,1103.07,,N,,N,H,9/12/1999 16:16,FIRE_PROD,8/1/2004 13:21,FIRE_PROD,LO,RM
189,11,2,PK,Prairie Creek,52.2552,-115.2891,1173,,N,,N,H,1/4/1998 10:24,DBA,8/1/2004 13:21,FIRE_PROD,RS,RM
31,13,1,PL,PORCUPINE,49.886988,-114.005044,1820,,N,,Y,Y,1/4/1998 10:24,DBA,11/1/2005 13:58,KKEATS,LO,CR
501,9,1,PM,Pelican Mountain,55.6167,-113.5583,914.4,,N,,N,H,9/12/1999 16:16,FIRE_PROD,8/1/2004 13:21,FIRE_PROD,LO,LB
1891,4,4,PMT,Pelican,55.704,-113.57,730,,N,,N,N,1/5/2017 11:47,PKRUGER,3/4/2019 13:19,JWOLLIS,TAW,RE
146,9,3,PN,Pine Ridge,54.0833,-112.25,585,,N,,N,H,1/4/1998 10:24,DBA,8/1/2004 13:21,FIRE_PROD,RZ,LB
79,1,1,PO,PONTON,58.931857,-116.220746,954,,N,,Y,Y,1/4/1998 10:24,DBA,18/11/2004 16:11:52,SSIMSER,LO,OJ
474,1,4,PP,Paddle Prairie Sbw,59.117,-118,0,,N,,N,H,19/05/1999 15:54:23,LAVIS,8/1/2004 13:21,FIRE_PROD,TAW,OJ
2271,11,4,PPT,Porcupine Taws,51.9274,-116.3606,1590,,N,,N,N,14/08/2018 11:46:36,PKRUGER,3/4/2019 13:19,JWOLLIS,TAW,RM
527,9,4,PQ,Christina Fire 31,55.643,-111.9488,0,,N,,N,H,18/05/2002 19:10:55,NNIMCHUK,8/1/2004 13:21,FIRE_PROD,TAW,LB
147,9,1,PR,PRIMROSE,54.7495,-110.0519,702,,N,,N,H,1/4/1998 10:24,DBA,3/6/2004 12:11,LDUCHARM,LO,LB
225,6,1,PS,Pass Creek,54.2289,-116.84,1080.7,,N,,N,H,1/4/1998 10:24,DBA,5/11/2014 13:16,PKRUGER,LO,SH
1291,6,5,PSA,Pass Creek  Auto,54.2289,-116.84,1080.7,,N,,Y,Y,13/09/2014 11:15:34,PKRUGER,13/09/2014 11:16:38,PKRUGER,PAW,SH
114,5,1,PT,PINTO,54.780627,-119.395948,1044,,N,,Y,Y,1/4/1998 10:24,DBA,18/11/2004 16:52:45,SSIMSER,LO,GP
2111,5,5,PTA,Pinto Env Auto,54.7806,-119.3961,1046,,N,,N,N,24/05/2018 13:33:21,PKRUGER,6/9/2018 11:32,PKRUGER,PAW,GP
103,5,1,PU,PUSKWASKAU,55.219195,-117.493116,916,,N,,Y,Y,1/4/1998 10:24,DBA,9/12/2004 21:42,LDUCHARM,LO,GP
1832,9,5,PVA,Pleasant View,54.9639,-113.3208,641,,N,,N,H,6/4/2017 14:19,PKRUGER,20/04/2018 10:22:05,JWOLLIS,PAW,LB
524,3,4,PX,Hutton Creek Burn,57,-117,800,,N,,N,H,8/5/2002 10:58,NNIMCHUK,8/1/2004 13:21,FIRE_PROD,TAW,MA
19,7,6,PY,Fort Chipewyan,58.7167,-111.1833,213,,N,,N,H,1/4/1998 10:24,DBA,4/5/2004 11:23,LAVIS,MET,PY
716,4,4,PZ,Swf077,56.9575,-114.7228,715,,N,,N,H,16/06/2009 11:03:38,ESUMMERS,5/11/2009 9:49,PKRUGER,TAW,RE
493,5,6,QU,Grande Prairie,55.1797,-118.8836,669,,N,,N,H,9/12/1999 15:23,FIRE_PROD,4/5/2004 11:19,LAVIS,MET,GP
180,11,5,R1,Clearwater Auto,51.9874,-115.24,1280,,N,,Y,Y,1/4/1998 10:24,DBA,23/04/2007 09:05:16,PKRUGER,PAW,RM
181,11,5,R2,Ram Falls Auto,52.0877,-115.8442,1641,,N,,Y,Y,1/4/1998 10:24,DBA,23/04/2007 09:05:09,PKRUGER,PAW,RM
182,11,5,R3,Elk River Auto,52.9689,-115.8647,1067,,Y,,Y,Y,1/4/1998 10:24,DBA,4/5/2004 11:22,LAVIS,PAW,RM
183,11,5,R4,Kootenay Plains Auto,52.0621,-116.4128,1294,,N,,Y,Y,1/4/1998 10:24,DBA,23/04/2007 09:05:16,PKRUGER,PAW,RM
2512,11,4,RAT,Ram Mtn PB,52.3278,-115.7711,1590,,N,,N,N,7/5/2019 11:18,PKRUGER,,,TAW,RM
85,1,2,RB,Rainbow Lake,58.4969,-119.4103,540,,N,,N,H,1/4/1998 10:24,DBA,2/5/2005 14:31,LAVIS,RS,OJ
913,9,6,RC,Rich Lake Agrd,54.5012,-111.6914,585,,N,,N,H,20/04/2012 09:28:22,PKRUGER,7/9/2018 11:08,PKRUGER,MET,LB
1335,9,5,RCA,Rich Lake Agdm,54.5012,-111.6914,616,,N,,N,H,19/03/2015 10:41:17,PKRUGER,20/04/2018 09:58:30,JWOLLIS,PAW,LB
1512,10,4,RCT,Rockslide Creek Fire,53.5912,-119.2674,1500,3,N,,N,N,18/06/2015 14:38:02,AOU,31/07/2015 11:20:23,PKRUGER,TAW,ED
521,12,1,RD,Red Deer,51.658333,-115.211111,1423,,N,,N,H,15/01/2002 11:12:53,APP_SUPER,6/1/2005 13:54,KKEATS,LO,BO
204,4,1,RE,Red Earth,56.6606,-115.1139,627.26,,N,,N,H,1/4/1998 10:24,DBA,23/01/2018 10:18:26,PKRUGER,LO,RE
1853,4,5,REA,Red Earth Auto,56.6606,-115.114,627,,N,,Y,Y,22/04/2017 13:40:00,PKRUGER,,,PAW,RE
129,9,1,RH,Round Hill,55.3016,-111.9951,693.7,,N,,N,H,1/4/1998 10:24,DBA,16/11/2016 09:01:01,PKRUGER,LO,LB
1791,9,5,RHA,Round Hill Auto,55.3016,-111.9951,693,,N,,Y,Y,13/09/2016 13:05:07,PKRUGER,13/09/2016 13:05:19,PKRUGER,PAW,LB
11,8,1,RI,Richardson,57.8901,-110.9707,365,,N,,N,H,1/4/1998 10:24,DBA,25/05/2012 11:08:15,PKRUGER,LO,MM
2291,8,5,RIA,Richardson  Auto,57.89,-110.971,365,,N,,Y,Y,19/09/2018 13:20:37,PKRUGER,,,PAW,MM
127,9,1,RK,Rock Island Lake,55.3264,-113.4604,722,,N,,N,H,1/4/1998 10:24,DBA,16/11/2016 09:01:01,PKRUGER,LO,LB
1713,9,5,RKA,Rock Island Lake Auto,55.3264,-113.4604,722,,N,,Y,Y,31/08/2016 08:36:52,PKRUGER,,,PAW,LB
1092,2,6,RL,Rocky Lane Agcm,58.4518,-116.4806,301,,N,,N,N,13/08/2013 11:57:05,PKRUGER,19/03/2015 09:52:21,PKRUGER,MET,FV
1311,2,5,RLA,Rocky Lane Agrd,58.4518,-116.4806,301,,Y,,Y,Y,29/10/2014 09:52:59,JMANIAOL,19/01/2018 11:15:37,PKRUGER,PAW,FV
179,11,6,RM,Rocky Mountain House,52.4297,-114.9033,1015,,N,,N,H,1/4/1998 10:24,DBA,4/5/2004 11:22,LAVIS,MET,RM
64,10,2,RO,ROBB,53.2406,-116.9681,1097,,N,,N,H,1/4/1998 10:24,DBA,8/1/2004 13:21,FIRE_PROD,RS,ED
240,12,1,RR,RASPBERRY RIDGE,50.29974,-114.638864,2360.1,,N,,Y,N,1/4/1998 10:24,DBA,15/12/2005 13:39:38,TGROSSE,LO,BO
72,1,1,RT,RAINBOW,58.3468,-119.709908,601,,N,,Y,Y,1/4/1998 10:24,DBA,18/11/2004 16:13:08,SSIMSER,LO,OJ
1171,5,4,RV,Red Deer Creek,54.6527,-120,1321,,N,,N,H,22/07/2014 09:36:02,PKRUGER,5/11/2014 8:38,PKRUGER,TAW,GP
213,4,2,RX,Red Earth,56.5378,-115.2694,556,,N,,N,H,1/4/1998 10:24,DBA,4/5/2004 11:20,LAVIS,RS,RE
473,11,1,RY,ROCKY,52.522325,-114.87742,1106,,N,,Y,Y,14/04/1999 13:38:48,PHQ_SUPER_1,18/11/2004 16:13:48,SSIMSER,LO,RM
216,6,5,S1,Salteaux Auto,54.9161,-114.7814,736,,N,,Y,Y,1/4/1998 10:24,DBA,8/1/2004 13:20,FIRE_PROD,PAW,SH
217,6,5,S2,MARTEN HILLS AUTO,55.5264,-114.5569,1000,,N,,Y,Y,1/4/1998 10:24,DBA,8/1/2004 13:20,FIRE_PROD,PAW,SH
529,4,5,S3,Doucette Auto,55.8208,-114.2994,692,,N,,N,H,12/9/2002 16:50,LAVIS,5/11/2014 8:39,PKRUGER,PAW,RE
590,6,5,S4,Kinuso,55.3031,-115.4917,611,,N,,Y,Y,23/05/2003 08:35:48,LAVIS,8/1/2004 13:20,FIRE_PROD,PAW,SH
686,4,5,S5,Loon River,57.1443,-115.0798,455,,N,,Y,Y,17/08/2007 13:50:54,PKRUGER,11/8/2009 13:56,PKRUGER,PAW,RE
952,4,5,S6,Wabasca Auto,55.9627,-113.8254,555,,Y,,Y,Y,7/5/2012 9:30,PKRUGER,7/1/2014 9:40,PKRUGER,PAW,RE
1111,4,5,S7,Chip Alpac,56.5276,-113.4688,573,,N,,Y,Y,7/10/2013 9:59,PKRUGER,25/10/2013 08:44:54,PKRUGER,PAW,RE
107,5,1,SA,SADDLE HILLS,55.623388,-119.716873,967,,N,,Y,Y,1/4/1998 10:24,DBA,18/11/2004 16:14:07,SSIMSER,LO,GP
1571,5,6,SAV,Savanna AGCM,56.0761,-119.3449,703,,N,,Y,Y,13/04/2016 10:35:48,PKRUGER,,,MET,GP
731,8,4,SB,Stony Complex,56.4195,-111.3675,531,,N,,N,H,18/06/2009 08:38:40,PKRUGER,11/4/2012 15:30,PKRUGER,TAW,MM
117,5,3,SC,Sneddon Creek,56.2,-119.402,648,,N,,N,H,1/4/1998 10:24,DBA,11/1/2017 13:23,PKRUGER,RZ,GP
1211,10,4,SCT,Sheep Creek,53.8533,-119.6566,1300,2,N,,N,H,15/08/2014 14:07:05,PKRUGER,19/01/2018 11:09:04,PKRUGER,TAW,ED
219,6,1,SD,Swan Dive,54.7284,-115.3557,1241,,N,,N,H,1/4/1998 10:24,DBA,5/11/2014 13:16,PKRUGER,LO,SH
1231,6,5,SDA,Swan Dive AUTO,54.7283,-115.3556,1241,,N,,Y,Y,25/08/2014 10:58:22,PKRUGER,,,PAW,SH
491,5,2,SE,South Wapiti,54.9333,-119.2033,762,,N,,N,H,9/12/1999 15:21,FIRE_PROD,8/1/2004 13:21,FIRE_PROD,RS,GP
241,13,1,SG,Sugarloaf,49.9493,-114.539,2516,,N,,Y,N,1/4/1998 10:24,DBA,28/08/2018 11:17:17,PKRUGER,LO,CR
56,10,1,SI,SIMONETTE,54.233588,-118.414531,1379.4,,N,,Y,Y,1/4/1998 10:24,DBA,9/12/2004 21:42,LDUCHARM,LO,ED
1631,3,4,SIP,Siphon Creek,56.6242,-119.9409,900,2,N,,N,H,11/5/2016 11:09,PKRUGER,19/01/2018 11:09:04,PKRUGER,TAW,MA
125,5,2,SJ,Spirit River,55.7742,-118.8372,640,,N,,N,H,1/4/1998 10:24,DBA,8/1/2004 13:21,FIRE_PROD,RS,GP
105,5,1,SK,SMOKY,54.404724,-118.296399,1200.8,,N,,Y,Y,1/4/1998 10:24,DBA,27/01/2009 09:27:07,SMUTYALA,LO,GP
591,9,6,SL,Smoky Lake Agrd,54.2775,-112.4992,680,,N,,N,N,3/6/2003 13:17,LAVIS,19/03/2015 10:39:13,PKRUGER,MET,LB
1334,9,5,SLA,Smoky Lake AGDM,54.2648,-112.5041,675,,Y,,Y,Y,19/03/2015 10:39:13,PKRUGER,,,PAW,LB
20,7,6,SM,Fort Smith,60.0166,-111.9666,205,,Y,,Y,Y,1/4/1998 10:24,DBA,19/01/2018 11:18:56,PKRUGER,MET,PY
112,5,1,SN,Snuff Mountain,54.6783,-117.5387,942.8,,N,,N,H,1/4/1998 10:24,DBA,24/10/2018 08:53:20,PKRUGER,LO,GP
2473,5,5,SNA,Snuff Mountain Auto,54.6783,-117.5387,942,,N,,Y,Y,24/10/2018 08:53:20,PKRUGER,,,PAW,GP
66,10,3,SO,Shining Bank,53.8064,-115.9389,899,,N,,N,N,1/4/1998 10:24,DBA,11/5/2012 10:16,PKRUGER,RZ,ED
197,4,1,SP,Salt Prairie,55.6608,-115.8323,762.57,,N,,N,H,1/4/1998 10:24,DBA,23/01/2018 10:18:26,PKRUGER,LO,RE
1974,4,5,SPA,SALT PRAIRIE AUTO,55.6608,-115.8323,762,,N,,Y,Y,4/7/2017 13:01,PKRUGER,,,PAW,RE
200,4,1,SQ,Sandy Lake,55.8215,-113.6663,631.51,,N,,N,H,1/4/1998 10:24,DBA,23/01/2018 10:18:26,PKRUGER,LO,RE
1852,4,5,SQA,Sandy Lake Auto,55.8215,-113.67,631,,N,,Y,Y,22/04/2017 13:40:00,PKRUGER,,,PAW,RE
134,9,1,SR,Sand River,54.6469,-110.9817,755.71,,N,,N,H,1/4/1998 10:24,DBA,16/11/2016 09:01:01,PKRUGER,LO,LB
1693,9,5,SRA,Sand River Auto,54.6469,-110.9817,755,,N,,Y,Y,23/08/2016 11:07:58,PKRUGER,23/08/2016 11:10:23,PKRUGER,PAW,LB
87,1,3,SS,STEEN RIVER,59.565,-117.1123,304,,N,,N,H,1/4/1998 10:24,DBA,8/1/2004 13:21,FIRE_PROD,RZ,OJ
2,8,1,ST,STONY MOUNTAIN,56.389708,-111.2806,762.35,,N,,Y,Y,1/4/1998 10:24,DBA,9/12/2004 21:42,LDUCHARM,LO,MM
51,11,2,SU,Sundre,51.7978,-114.6386,1097,,N,,N,H,1/4/1998 10:24,DBA,8/1/2004 13:21,FIRE_PROD,RS,RM
77,1,1,SV,Steen,59.6345,-117.7886,705,,N,,Y,Y,1/4/1998 10:24,DBA,12/4/2013 10:57,PKRUGER,LO,OJ
196,6,1,SW,Sweathouse,54.8989,-116.7519,892,,N,,N,H,1/4/1998 10:24,DBA,23/01/2018 10:26:02,PKRUGER,LO,SH
1977,6,5,SWA,Sweathouse Auto,54.8989,-116.7519,892,,N,,Y,Y,4/7/2017 13:12,PKRUGER,6/7/2017 8:57,PKRUGER,PAW,SH
2014,7,5,SWG,Sweetgrass,58.8529,-111.9972,210,,N,,N,N,20/12/2017 14:20:35,PKRUGER,9/5/2019 8:19,PKRUGER,PAW,PY
138,9,2,SY,Smith,55.1597,-114.0311,610,,N,,N,H,1/4/1998 10:24,DBA,20/04/2018 09:57:38,JWOLLIS,RS,LB
528,4,4,TA,Talbot Fire ,57.2,-117.3,800,,N,,N,H,10/6/2002 20:26,BHERZOG,8/1/2004 13:21,FIRE_PROD,TAW,RE
1091,2,6,TG,Tompkins Landing Agrd,58.0208,-116.848,343,,N,,N,N,13/08/2013 11:56:06,PKRUGER,19/03/2015 10:35:02,PKRUGER,MET,FV
1332,2,5,TGA,Tompkins Landing Agcm,58.0208,-116.848,343,,N,,Y,Y,19/03/2015 09:51:39,PKRUGER,19/03/2015 10:11:18,PKRUGER,PAW,FV
915,10,6,TH,Tomahawk Agrd,53.4333,-114.7167,814,,N,,N,H,20/04/2012 09:34:28,PKRUGER,7/11/2018 10:42,PKRUGER,MET,ED
2071,6,5,THA,Tomahawk Agdm,53.4333,-114.7167,814,,N,,Y,Y,18/05/2018 15:17:53,PKRUGER,25/05/2018 15:03:13,PKRUGER,PAW,SH
101,4,1,TK,TOMPKINS,57.874276,-116.820759,392,,N,,N,H,1/4/1998 10:24,DBA,17/08/2005 09:54:30,LDUCHARM,LO,RE
205,4,1,TM,Trout Mountain,56.7958,-114.4156,795.79,,N,,N,H,1/4/1998 10:24,DBA,23/01/2018 10:18:26,PKRUGER,LO,RE
1851,4,5,TMA,Trout Moutain Auto,56.796,-114.42,796,,N,,Y,Y,22/04/2017 13:40:00,PKRUGER,,,PAW,RE
1071,2,4,TN,Tomkins Landing Taws,58.0346,-116.7372,330,,N,,N,H,19/06/2013 15:53:08,PKRUGER,5/11/2014 8:39,PKRUGER,TAW,FV
53,10,1,TO,TOM HILL,53.929692,-116.331122,1289.05,,N,,Y,Y,1/4/1998 10:24,DBA,9/12/2004 21:42,LDUCHARM,LO,ED
203,4,1,TP,Teepee Lake,56.4582,-114.1184,782,,N,,N,H,1/4/1998 10:24,DBA,23/01/2018 10:18:26,PKRUGER,LO,RE
1975,4,5,TPA,TEEPEE LAKE AUTO,56.4582,-114.1184,782,,N,,Y,Y,4/7/2017 13:04,PKRUGER,,,PAW,RE
106,5,1,TR,TORRENS,54.311064,-119.683685,1814.7,,N,,Y,Y,1/4/1998 10:24,DBA,15/12/2005 13:40:06,TGROSSE,LO,GP
207,4,1,TT,Talbot Lake,57.3487,-115.6564,822,,N,,N,H,1/4/1998 10:24,DBA,23/01/2018 10:18:26,PKRUGER,LO,RE
1971,4,5,TTA,TALBOT LAKE AUTO,57.3487,-115.6564,822,,N,,Y,Y,4/7/2017 12:57,PKRUGER,,,PAW,RE
509,13,2,TV,Turner Valley,50.675,-114.275,1219.2,,N,,N,H,13/12/1999 15:18:02,FIRE_PROD,8/1/2004 13:21,FIRE_PROD,RS,CR
24,8,1,TW,THICKWOOD HILLS,56.7917,-111.8078,535,,N,,N,H,1/4/1998 10:24,DBA,20/08/2004 09:32:06,LDUCHARM,LO,MM
223,6,1,TY,Tony,54.4053,-117.4915,1006.9,,N,,N,H,1/4/1998 10:24,DBA,5/11/2014 13:16,PKRUGER,LO,SH
1271,6,5,TYA,Tony Auto,54.4054,-117.4915,1007,,N,,Y,Y,5/9/2014 9:00,NNIMCHUK,,,PAW,SH
687,11,4,US,Upper Sask Pb,52.0115,-116.5273,1631,,N,,N,N,5/9/2007 11:08,PKRUGER,31/03/2011 10:34:14,JMANIAOL,TAW,RM
851,4,4,UT,Utikuma Fire,55.9792,-115.2682,600,,N,,N,H,23/05/2011 15:57:14,ESUMMERS,11/4/2012 15:30,PKRUGER,TAW,RE
513,5,4,VA,Valleyview Burn Site,54.9722,-118.025,670,,N,,N,H,24/04/2001 08:43:36,LAVIS,28/01/2016 14:18:18,PKRUGER,TAW,GP
218,6,1,VG,Vega,54.4284,-114.4295,713.15,,N,,N,H,1/4/1998 10:24,DBA,5/11/2014 13:16,PKRUGER,LO,SH
1153,6,5,VGA,VEGA  AUTO,54.4284,-114.4295,713,,N,,Y,Y,2/7/2014 9:33,PKRUGER,,,PAW,SH
115,5,2,VV,Valleyview,55.0667,-117.2764,701,,N,,N,N,1/4/1998 10:24,DBA,5/4/2016 8:19,PKRUGER,RS,GP
1593,5,5,VVA,Valleyview Auto,55.0978,-117.1987,694,,N,,N,Y,20/04/2016 11:04:29,PKRUGER,14/03/2018 13:35:28,LDUCHARM,PAW,GP
792,5,2,VW,Valleyview2,55.3467,-117.1281,700,,N,,N,N,7/5/2010 14:22,ESUMMERS,4/4/2016 15:48,AOU,RS,GP
1031,5,6,VY,Valleyview Agrc,55.0978,-117.1987,694,,N,,Y,Y,16/04/2013 13:23:24,PKRUGER,5/4/2016 8:19,PKRUGER,MET,GP
232,6,5,W1,Freeman Auto,54.5691,-115.3822,821,,N,,Y,Y,1/4/1998 10:24,DBA,30/05/2005 08:09:06,LAVIS,PAW,SH
233,10,5,W2,Eta Lake Auto,53.1834,-115.6887,927,,Y,,Y,Y,1/4/1998 10:24,DBA,23/04/2007 09:04:04,PKRUGER,PAW,ED
234,6,5,W3,Meekwap Auto,54.6249,-116.6597,836,,N,,Y,Y,1/4/1998 10:24,DBA,8/1/2004 13:20,FIRE_PROD,PAW,SH
235,6,5,W4,Windfall Auto,54.1919,-116.2422,830,,N,,Y,Y,1/4/1998 10:24,DBA,15/06/2004 15:25:06,PKRUGER,PAW,SH
518,6,5,W5,Fox Creek Auto,54.3974,-116.8025,850,,N,,Y,Y,9/11/2001 16:17,NNIMCHUK,8/1/2004 13:20,FIRE_PROD,PAW,SH
549,6,5,W6,Timeu Creek Auto,54.66,-114.6002,730,,N,,Y,Y,3/10/2002 9:16,LAVIS,4/6/2014 8:18,PKRUGER,PAW,SH
569,6,5,W7,Berland Hills Auto,54.1466,-117.8901,1170,,N,,Y,Y,10/10/2002 10:08,LAVIS,19/10/2005 13:42:19,PKRUGER,PAW,SH
212,4,2,WB,Wabasca,55.9844,-113.8861,555,,N,,N,N,1/4/1998 10:24,DBA,7/1/2014 9:38,PKRUGER,RS,RE
226,6,1,WC,Whitecourt,54.0325,-115.7208,1172,,N,,N,H,1/4/1998 10:24,DBA,5/11/2014 13:16,PKRUGER,LO,SH
1191,6,5,WCA,Whitecourt  Auto,54.0325,-115.7208,1172,,Y,,Y,Y,7/8/2014 9:26,PKRUGER,19/01/2018 11:14:28,PKRUGER,PAW,SH
150,3,1,WD,WHITEMUD,56.422284,-118.002181,835,,N,,Y,Y,1/4/1998 10:24,DBA,18/11/2004 16:18:53,SSIMSER,LO,MA
201,4,1,WF,Whitefish,56.1834,-115.4729,705.34,,N,,N,H,1/4/1998 10:24,DBA,23/01/2018 10:18:26,PKRUGER,LO,RE
1972,4,5,WFA,WHITEFISH AUTO,56.1834,-115.4729,705,,N,,Y,Y,4/7/2017 12:58,PKRUGER,,,PAW,RE
773,6,6,WH,Whitecourt Airport,54.0836,-115.7856,741,,N,,N,N,7/4/2010 14:07,ESUMMERS,19/01/2018 10:42:21,PKRUGER,MET,SH
133,9,1,WI,Winefred,55.3374,-110.3075,726,,N,,N,H,1/4/1998 10:24,DBA,5/11/2009 9:46,PKRUGER,LO,LB
2051,11,4,WIA,Wapiabi,52.472,-116.4412,1633,,N,,Y,Y,17/05/2018 10:11:30,PKRUGER,,,TAW,RM
492,13,2,WL,Willow Creek,50.2417,-114.3389,1478.28,,N,,N,H,9/12/1999 15:22,FIRE_PROD,8/1/2004 13:21,FIRE_PROD,RS,CR
109,5,1,WM,WHITE MOUNTAIN,55.694075,-119.239005,1021,,N,,Y,Y,1/4/1998 10:24,DBA,9/12/2004 21:41,LDUCHARM,LO,GP
503,11,1,WO,Wolf,52.0611,-115.9389,1219.2,,N,,N,H,9/12/1999 16:18,FIRE_PROD,8/1/2004 13:21,FIRE_PROD,LO,RM
148,9,3,WP,Winston Churchill Park,54.773,-111.8924,553,,N,,N,H,1/4/1998 10:24,DBA,8/1/2004 13:21,FIRE_PROD,RZ,LB
2531,10,6,WPA,Hendrickson Creek,53.8,-118.45,1448,,N,,Y,Y,13/05/2019 14:10:30,PKRUGER,,,MET,ED
136,9,2,WR,Wandering River,55.2006,-112.5017,579,,N,,N,H,1/4/1998 10:24,DBA,16/11/2016 09:01:01,PKRUGER,RS,LB
1692,9,5,WRA,Wandering River Auto,55.2855,-112.4789,579,,N,,Y,Y,23/08/2016 11:07:58,PKRUGER,29/10/2018 10:23:28,PKRUGER,PAW,LB
522,13,1,WS,Whistler,49.334722,-114.305556,2163,,N,,N,H,15/01/2002 11:12:53,APP_SUPER,6/1/2005 13:54,KKEATS,LO,CR
80,1,1,WT,WATT MOUNTAIN,58.646858,-117.506501,793,,N,,Y,Y,1/4/1998 10:24,DBA,9/12/2004 21:41,LDUCHARM,LO,OJ
2611,1,4,WTT,Watt Mountain Temp,58.6469,-117.5065,793,,N,,Y,Y,27/05/2019 08:51:03,PAZUR,,,TAW,OJ
82,2,1,WU,WADLIN,57.777079,-115.455615,848,,N,,Y,Y,1/4/1998 10:24,DBA,18/11/2004 16:17:07,SSIMSER,LO,FV
653,10,4,WW,Willmore Wilderness,53.6013,-119.5559,1414,,N,,N,H,5/6/2004 8:16,LAVIS,5/11/2014 8:39,PKRUGER,TAW,ED
165,3,2,WY,WORSLEY,56.5078,-119.1253,647,,N,,N,H,1/4/1998 10:24,DBA,8/1/2004 13:21,FIRE_PROD,RS,MA
2031,3,5,WYA,Worsley AGCM,56.3709,-119.1829,660,,N,,Y,Y,25/04/2018 09:43:04,PKRUGER,,,PAW,MA
102,1,1,WZ,WHITESANDS,59.4324,-114.9025,962,,N,,N,H,1/4/1998 10:24,DBA,3/6/2004 12:11,LDUCHARM,LO,OJ
37,12,6,XA,Bow Valley Auto,51.0833,-115.0667,1326,,Y,,N,H,1/4/1998 10:24,DBA,7/11/2018 10:41,PKRUGER,MET,BO
1372,12,5,XAA,Bow Valley Auto,51.0833,-115.0667,1326,,N,,Y,Y,2/4/2015 14:39,PKRUGER,3/4/2019 13:31,JWOLLIS,PAW,BO
149,4,3,XL,Cross Lake,54.591,-113.7915,671,,N,,N,H,1/4/1998 10:24,DBA,8/1/2004 13:21,FIRE_PROD,RZ,RE
916,6,6,XP,Stony Plain Ec,53.5472,-114.1083,814,,N,,N,N,20/04/2012 09:36:41,PKRUGER,19/05/2015 10:19:44,PKRUGER,MET,SH
78,1,1,YA,YATES,59.895908,-116.347219,305,,N,,Y,Y,1/4/1998 10:24,DBA,16/08/2005 14:33:09,KKEATS,LO,OJ
60,10,1,YH,YELLOWHEAD,53.236389,-117.141419,1477.2,,N,,Y,Y,1/4/1998 10:24,DBA,9/12/2004 21:41,LDUCHARM,LO,ED
2193,10,4,YH-T,Yellowhead Temp,53.2263,-117.1414,1477,,N,,N,H,1/7/2018 16:33,NNIMCHUK,28/08/2018 11:18:46,PKRUGER,TAW,ED
2211,10,4,YHT,Yh Temp,53.2263,-117.1414,1477,,N,,N,H,2/7/2018 11:03,AYAWORSK,28/08/2018 11:18:01,PKRUGER,TAW,ED
71,1,1,ZA,ZAMA,58.595044,-119.165028,653,,N,,Y,Y,1/4/1998 10:24,DBA,9/12/2004 21:41,LDUCHARM,LO,OJ
991,1,4,ZC,Zama City - Hwf106,59.1577,-118.6953,395,,N,,N,H,14/07/2012 13:39:40,PKRUGER,5/11/2014 8:39,PKRUGER,TAW,OJ
215,6,6,ZH,SLAVE LAKE,55.2933,-114.7783,581,,N,,N,H,1/4/1998 10:24,DBA,8/1/2004 13:21,FIRE_PROD,MET,SH
230,6,3,ZU,Whitecourt,54.0836,-115.7856,741,,N,,N,N,1/4/1998 10:24,DBA,12/2/2013 11:52,PKRUGER,RZ,SH
